{
	"action": "UPDATE",
	"class": "get_all_countries_and_weather",
	"data": [{
		"id": "1",
		"loc_id": "2761369",
		"lon": "16.3721",
		"lat": "48.2085",
		"country": "AT",
		"loc_name": "Vienna",
		"sunrise": "1508195820",
		"sunset": "1508234520",
		"description": "Fog",
		"icon": "images\/weather\/50n.png",
		"temp_cur": "8",
		"temp_min": "12",
		"temp_max": "20.8",
		"humidity": "100",
		"pressure": "1026",
		"timezone": "1",
		"wind_speed": "4.30"
	}, {
		"id": "2",
		"loc_id": "2172517",
		"lon": "149.128",
		"lat": "35.2835",
		"country": "AU",
		"loc_name": "Canberra",
		"sunrise": "1508192280",
		"sunset": "1508239200",
		"description": "Sunny",
		"icon": "images\/weather\/01d.png",
		"temp_cur": "24",
		"temp_min": "8.3",
		"temp_max": "24.8",
		"humidity": "31",
		"pressure": "1026",
		"timezone": "10",
		"wind_speed": "6.90"
	}, {
		"id": "3",
		"loc_id": "1185241",
		"lon": "90.4074",
		"lat": "23.7104",
		"country": "BD",
		"loc_name": "Dhaka",
		"sunrise": "1508191020",
		"sunset": "1508232660",
		"description": "Sunny",
		"icon": "images\/weather\/01d.png",
		"temp_cur": "29.6",
		"temp_min": "28",
		"temp_max": "38.9",
		"humidity": "64",
		"pressure": "1005",
		"timezone": "7",
		"wind_speed": "4.30"
	}, {
		"id": "4",
		"loc_id": "2800866",
		"lon": "4.34878",
		"lat": "50.8504",
		"country": "BE",
		"loc_name": "Brussels",
		"sunrise": "1508198940",
		"sunset": "1508237160",
		"description": "Clear",
		"icon": "images\/weather\/01n.png",
		"temp_cur": "15",
		"temp_min": "14.4",
		"temp_max": "21.3",
		"humidity": "88",
		"pressure": "1021",
		"timezone": "1",
		"wind_speed": "4.30"
	}, {
		"id": "5",
		"loc_id": "290340",
		"lon": "50.5832",
		"lat": "26.2154",
		"country": "BH",
		"loc_name": "Manama",
		"sunrise": "1508189880",
		"sunset": "1508231280",
		"description": "Clear",
		"icon": "images\/weather\/01n.png",
		"temp_cur": "29",
		"temp_min": "31",
		"temp_max": "33.6",
		"humidity": "89",
		"pressure": "1008",
		"timezone": "3",
		"wind_speed": "6.90"
	}, {
		"id": "6",
		"loc_id": "1820906",
		"lon": "114.948",
		"lat": "4.94029",
		"country": "BN",
		"loc_name": "Bandar Seri Begawan",
		"sunrise": "1508191500",
		"sunset": "1508234760",
		"description": "Partly cloudy",
		"icon": "images\/weather\/03d.png",
		"temp_cur": "28",
		"temp_min": "24",
		"temp_max": "29.4",
		"humidity": "74",
		"pressure": "1010",
		"timezone": "8",
		"wind_speed": "8.10"
	}, {
		"id": "7",
		"loc_id": "6094817",
		"lon": "-75.6981",
		"lat": "45.4112",
		"country": "CA",
		"loc_name": "Ottawa",
		"sunrise": "1508196060",
		"sunset": "1508235300",
		"description": "Clear",
		"icon": "images\/weather\/01n.png",
		"temp_cur": "2",
		"temp_min": "2.2",
		"temp_max": "8.2",
		"humidity": "80",
		"pressure": "1023",
		"timezone": "-5",
		"wind_speed": "6.90"
	}, {
		"id": "8",
		"loc_id": "2661552",
		"lon": "7.44744",
		"lat": "46.9481",
		"country": "CH",
		"loc_name": "Bern",
		"sunrise": "1508197860",
		"sunset": "1508236740",
		"description": "Clear",
		"icon": "images\/weather\/01n.png",
		"temp_cur": "6",
		"temp_min": "8.8",
		"temp_max": "22.6",
		"humidity": "100",
		"pressure": "1027",
		"timezone": "1",
		"wind_speed": "0.00"
	}, {
		"id": "9",
		"loc_id": "1816670",
		"lon": "116.397",
		"lat": "39.9075",
		"country": "CN",
		"loc_name": "Beijing",
		"sunrise": "1508192760",
		"sunset": "1508232780",
		"description": "Sunny",
		"icon": "images\/weather\/01d.png",
		"temp_cur": "13",
		"temp_min": "13.7",
		"temp_max": "18.9",
		"humidity": "77",
		"pressure": "1031",
		"timezone": "8",
		"wind_speed": "0.00"
	}, {
		"id": "10",
		"loc_id": "2950159",
		"lon": "13.4105",
		"lat": "52.5244",
		"country": "DE",
		"loc_name": "Berlin",
		"sunrise": "1508196960",
		"sunset": "1508234820",
		"description": "Fog",
		"icon": "images\/weather\/50n.png",
		"temp_cur": "14",
		"temp_min": "15",
		"temp_max": "22.8",
		"humidity": "88",
		"pressure": "1021",
		"timezone": "1",
		"wind_speed": "3.80"
	}, {
		"id": "11",
		"loc_id": "2618425",
		"lon": "12.5655",
		"lat": "55.6759",
		"country": "DK",
		"loc_name": "Copenhagen",
		"sunrise": "1508197500",
		"sunset": "1508234640",
		"description": "Mist",
		"icon": "images\/weather\/50n.png",
		"temp_cur": "13",
		"temp_min": "12.1",
		"temp_max": "14.8",
		"humidity": "100",
		"pressure": "1018",
		"timezone": "1",
		"wind_speed": "13.60"
	}, {
		"id": "12",
		"loc_id": "3117735",
		"lon": "-3.70256",
		"lat": "40.4165",
		"country": "ES",
		"loc_name": "Madrid",
		"sunrise": "1508200080",
		"sunset": "1508239920",
		"description": "Clear",
		"icon": "images\/weather\/01n.png",
		"temp_cur": "19.3",
		"temp_min": "14.4",
		"temp_max": "21.6",
		"humidity": "49",
		"pressure": "1022",
		"timezone": "0",
		"wind_speed": "7.20"
	}, {
		"id": "13",
		"loc_id": "658225",
		"lon": "24.9354",
		"lat": "60.1695",
		"country": "FI",
		"loc_name": "Helsinki",
		"sunrise": "1508198700",
		"sunset": "1508234700",
		"description": "Clear",
		"icon": "images\/weather\/01n.png",
		"temp_cur": "7",
		"temp_min": "3.7",
		"temp_max": "10.7",
		"humidity": "76",
		"pressure": "1012",
		"timezone": "2",
		"wind_speed": "12.50"
	}, {
		"id": "14",
		"loc_id": "2988507",
		"lon": "2.3488",
		"lat": "48.8534",
		"country": "FR",
		"loc_name": "Paris",
		"sunrise": "1508199240",
		"sunset": "1508237820",
		"description": "Clear",
		"icon": "images\/weather\/01n.png",
		"temp_cur": "14",
		"temp_min": "16.8",
		"temp_max": "23.3",
		"humidity": "88",
		"pressure": "1022",
		"timezone": "1",
		"wind_speed": "0.00"
	}, {
		"id": "15",
		"loc_id": "1819729",
		"lon": "114.158",
		"lat": "22.2855",
		"country": "HK",
		"loc_name": "Hong kong",
		"sunrise": "1508192400",
		"sunset": "1508234220",
		"description": "Partly cloudy",
		"icon": "images\/weather\/03d.png",
		"temp_cur": "25",
		"temp_min": "24.7",
		"temp_max": "28.1",
		"humidity": "83",
		"pressure": "1013",
		"timezone": "8",
		"wind_speed": "11.90"
	}, {
		"id": "16",
		"loc_id": "1642911",
		"lon": "106.845",
		"lat": "6.21462",
		"country": "ID",
		"loc_name": "Jakarta",
		"sunrise": "1508189460",
		"sunset": "1508233560",
		"description": "Partly cloudy",
		"icon": "images\/weather\/03d.png",
		"temp_cur": "28",
		"temp_min": "28.9",
		"temp_max": "34.8",
		"humidity": "70",
		"pressure": "1011",
		"timezone": "7",
		"wind_speed": "0.00"
	}, {
		"id": "17",
		"loc_id": "281184",
		"lon": "35.2163",
		"lat": "31.769",
		"country": "IL",
		"loc_name": "Jerusalem",
		"sunrise": "1508193840",
		"sunset": "1508234700",
		"description": "Clear",
		"icon": "images\/weather\/01n.png",
		"temp_cur": "11",
		"temp_min": "20.5",
		"temp_max": "25.2",
		"humidity": "71",
		"pressure": "1017",
		"timezone": "3",
		"wind_speed": "0.00"
	}, {
		"id": "18",
		"loc_id": "1261481",
		"lon": "77.2311",
		"lat": "28.6128",
		"country": "IN",
		"loc_name": "New Delhi",
		"sunrise": "1508192580",
		"sunset": "1508233800",
		"description": "Overcast",
		"icon": "images\/weather\/02d.png",
		"temp_cur": "21",
		"temp_min": "31.6",
		"temp_max": "39.6",
		"humidity": "69",
		"pressure": "1009",
		"timezone": "5.5",
		"wind_speed": "0.00"
	}, {
		"id": "19",
		"loc_id": "2964574",
		"lon": "-6.26719",
		"lat": "53.344",
		"country": "IR",
		"loc_name": "Dublin",
		"sunrise": "1508198160",
		"sunset": "1508235840",
		"description": "Partly cloudy",
		"icon": "images\/weather\/03n.png",
		"temp_cur": "11",
		"temp_min": "8.6",
		"temp_max": "12.7",
		"humidity": "71",
		"pressure": "1007",
		"timezone": "0",
		"wind_speed": "34.90"
	}, {
		"id": "20",
		"loc_id": "3172768",
		"lon": "12.6187",
		"lat": "42.0525",
		"country": "IT",
		"loc_name": "Rome",
		"sunrise": "1508196300",
		"sunset": "1508235900",
		"description": "Overcast",
		"icon": "images\/weather\/02n.png",
		"temp_cur": "17.1",
		"temp_min": "15.5",
		"temp_max": "25.7",
		"humidity": "47",
		"pressure": "1026",
		"timezone": "1",
		"wind_speed": "2.90"
	}, {
		"id": "21",
		"loc_id": "1850147",
		"lon": "139.692",
		"lat": "35.6895",
		"country": "JP",
		"loc_name": "Tokyo",
		"sunrise": "1508190540",
		"sunset": "1508231040",
		"description": "Moderate rain",
		"icon": "images\/weather\/10d.png",
		"temp_cur": "14.5",
		"temp_min": "15.9",
		"temp_max": "19.5",
		"humidity": "83",
		"pressure": "1023",
		"timezone": "9",
		"wind_speed": "11.20"
	}, {
		"id": "22",
		"loc_id": "1821306",
		"lon": "104.916",
		"lat": "11.5625",
		"country": "KH",
		"loc_name": "Phnom Penh",
		"sunrise": "1508190600",
		"sunset": "1508233320",
		"description": "Partly cloudy",
		"icon": "images\/weather\/03d.png",
		"temp_cur": "30",
		"temp_min": "24.7",
		"temp_max": "29",
		"humidity": "75",
		"pressure": "1008",
		"timezone": "7",
		"wind_speed": "0.00"
	}, {
		"id": "23",
		"loc_id": "1835848",
		"lon": "126.978",
		"lat": "37.5683",
		"country": "KR",
		"loc_name": "Seoul",
		"sunrise": "1508193720",
		"sunset": "1508233980",
		"description": "Sunny",
		"icon": "images\/weather\/01d.png",
		"temp_cur": "17.5",
		"temp_min": "15",
		"temp_max": "23.3",
		"humidity": "51",
		"pressure": "1026",
		"timezone": "9",
		"wind_speed": "2.90"
	}, {
		"id": "24",
		"loc_id": "285787",
		"lon": "47.9783",
		"lat": "29.3697",
		"country": "KW",
		"loc_name": "Kuwait City",
		"sunrise": "1508190660",
		"sunset": "1508231760",
		"description": "Clear",
		"icon": "images\/weather\/01n.png",
		"temp_cur": "27",
		"temp_min": "28.2",
		"temp_max": "33.8",
		"humidity": "37",
		"pressure": "1009",
		"timezone": "3",
		"wind_speed": "5.60"
	}, {
		"id": "25",
		"loc_id": "1651944",
		"lon": "102.6",
		"lat": "17.9667",
		"country": "LA",
		"loc_name": "Vientiane",
		"sunrise": "1508191440",
		"sunset": "1508233560",
		"description": "Overcast",
		"icon": "images\/weather\/02d.png",
		"temp_cur": "22",
		"temp_min": "20.8",
		"temp_max": "23.4",
		"humidity": "88",
		"pressure": "1012",
		"timezone": "7",
		"wind_speed": "4.30"
	}, {
		"id": "26",
		"loc_id": "1238992",
		"lon": "79.9083",
		"lat": "6.90278",
		"country": "LK",
		"loc_name": "Sri Jayewardenepura Kotte",
		"sunrise": "1508191020",
		"sunset": "1508234100",
		"description": "Partly cloudy",
		"icon": "images\/weather\/03d.png",
		"temp_cur": "28",
		"temp_min": "25.9",
		"temp_max": "29.2",
		"humidity": "74",
		"pressure": "1008",
		"timezone": "5.5",
		"wind_speed": "9.40"
	}, {
		"id": "27",
		"loc_id": "2960316",
		"lon": "6.13",
		"lat": "49.6117",
		"country": "LU",
		"loc_name": "Luxembourg",
		"sunrise": "1508198400",
		"sunset": "1508236860",
		"description": "Clear",
		"icon": "images\/weather\/01n.png",
		"temp_cur": "14",
		"temp_min": "10.1",
		"temp_max": "20.9",
		"humidity": "77",
		"pressure": "1023",
		"timezone": "1",
		"wind_speed": "2.50"
	}, {
		"id": "28",
		"loc_id": "1298987",
		"lon": "96.2167",
		"lat": "19.7333",
		"country": "MM",
		"loc_name": "Yangon",
		"sunrise": "1508191140",
		"sunset": "1508233380",
		"description": "Light rain",
		"icon": "images\/weather\/10d.png",
		"temp_cur": "25",
		"temp_min": "26",
		"temp_max": "30.3",
		"humidity": "100",
		"pressure": "1008",
		"timezone": "6.5",
		"wind_speed": "4.30"
	}, {
		"id": "29",
		"loc_id": "1821274",
		"lon": "113.546",
		"lat": "22.2006",
		"country": "MO",
		"loc_name": "Macau",
		"sunrise": "1508187960",
		"sunset": "1508231940",
		"description": "Partly cloudy",
		"icon": "images\/weather\/03n.png",
		"temp_cur": "26.3",
		"temp_min": "24.6",
		"temp_max": "30.9",
		"humidity": "70",
		"pressure": "1015",
		"timezone": "8",
		"wind_speed": "18.60"
	}, {
		"id": "30",
		"loc_id": "934154",
		"lon": "57.4989",
		"lat": "-20.1619",
		"country": "MU",
		"loc_name": "Port Louis",
		"sunrise": "1508189880",
		"sunset": "1508235180",
		"description": "Overcast",
		"icon": "images\/weather\/02d.png",
		"temp_cur": "24",
		"temp_min": "22.9",
		"temp_max": "26.7",
		"humidity": "78",
		"pressure": "1018",
		"timezone": "4",
		"wind_speed": "8.10"
	}, {
		"id": "31",
		"loc_id": "1282027",
		"lon": "73.5089",
		"lat": "4.1748",
		"country": "MV",
		"loc_name": "Male",
		"sunrise": "1508190660",
		"sunset": "1508233920",
		"description": "Partly cloudy",
		"icon": "images\/weather\/03d.png",
		"temp_cur": "29",
		"temp_min": "28.2",
		"temp_max": "28.5",
		"humidity": "75",
		"pressure": "1009",
		"timezone": "5",
		"wind_speed": "18.60"
	}, {
		"id": "32",
		"loc_id": "3530597",
		"lon": "-99.1277",
		"lat": "19.4285",
		"country": "MX",
		"loc_name": "Mexico City",
		"sunrise": "1508196720",
		"sunset": "1508238720",
		"description": "Overcast",
		"icon": "images\/weather\/02n.png",
		"temp_cur": "15.8",
		"temp_min": "12.2",
		"temp_max": "20.2",
		"humidity": "73",
		"pressure": "1020",
		"timezone": "-6",
		"wind_speed": "13.90"
	}, {
		"id": "33",
		"loc_id": "1735161",
		"lon": "101.687",
		"lat": "3.1412",
		"country": "MY",
		"loc_name": "Kuala Lumpur",
		"sunrise": "1508194620",
		"sunset": "1508238000",
		"description": "Partly cloudy",
		"icon": "images\/weather\/03d.png",
		"temp_cur": "29",
		"temp_min": "25.1",
		"temp_max": "36.2",
		"humidity": "66",
		"pressure": "1011",
		"timezone": "8",
		"wind_speed": "4.30"
	}, {
		"id": "34",
		"loc_id": "6544881",
		"lon": "4.97222",
		"lat": "52.3075",
		"country": "NL",
		"loc_name": "Amsterdam",
		"sunrise": "1508198940",
		"sunset": "1508236860",
		"description": "Partly cloudy",
		"icon": "images\/weather\/03n.png",
		"temp_cur": "15",
		"temp_min": "13.6",
		"temp_max": "17.6",
		"humidity": "72",
		"pressure": "1019",
		"timezone": "2",
		"wind_speed": "13.60"
	}, {
		"id": "35",
		"loc_id": "3143244",
		"lon": "10.7461",
		"lat": "59.9127",
		"country": "NO",
		"loc_name": "Oslo",
		"sunrise": "1508198460",
		"sunset": "1508234520",
		"description": "Light rain",
		"icon": "images\/weather\/10n.png",
		"temp_cur": "6",
		"temp_min": "4.7",
		"temp_max": "10.6",
		"humidity": "93",
		"pressure": "1012",
		"timezone": "1",
		"wind_speed": "6.90"
	}, {
		"id": "36",
		"loc_id": "2179537",
		"lon": "174.776",
		"lat": "-41.2866",
		"country": "NZ",
		"loc_name": "Wellington",
		"sunrise": "1508192940",
		"sunset": "1508240640",
		"description": "Sunny",
		"icon": "images\/weather\/01d.png",
		"temp_cur": "16",
		"temp_min": "9.9",
		"temp_max": "16.4",
		"humidity": "63",
		"pressure": "1017",
		"timezone": "12",
		"wind_speed": "19.20"
	}, {
		"id": "37",
		"loc_id": "287286",
		"lon": "58.5922",
		"lat": "23.6139",
		"country": "OM",
		"loc_name": "Muscat",
		"sunrise": "1508191440",
		"sunset": "1508233080",
		"description": "Clear",
		"icon": "images\/weather\/01n.png",
		"temp_cur": "29",
		"temp_min": "29.9",
		"temp_max": "34.8",
		"humidity": "70",
		"pressure": "1007",
		"timezone": "4",
		"wind_speed": "6.90"
	}, {
		"id": "38",
		"loc_id": "1701668",
		"lon": "120.982",
		"lat": "14.6042",
		"country": "PH",
		"loc_name": "Manila",
		"sunrise": "1508190480",
		"sunset": "1508232900",
		"description": "Partly cloudy",
		"icon": "images\/weather\/03d.png",
		"temp_cur": "29",
		"temp_min": "27.3",
		"temp_max": "34",
		"humidity": "89",
		"pressure": "1008",
		"timezone": "8",
		"wind_speed": "4.30"
	}, {
		"id": "39",
		"loc_id": "1176615",
		"lon": "73.0433",
		"lat": "33.7215",
		"country": "PK",
		"loc_name": "Islamabad",
		"sunrise": "1508191980",
		"sunset": "1508232720",
		"description": "Mist",
		"icon": "images\/weather\/50d.png",
		"temp_cur": "18",
		"temp_min": "21.8",
		"temp_max": "34.5",
		"humidity": "64",
		"pressure": "1010",
		"timezone": "5",
		"wind_speed": "0.00"
	}, {
		"id": "40",
		"loc_id": "290030",
		"lon": "51.5333",
		"lat": "25.2867",
		"country": "QA",
		"loc_name": "Doha",
		"sunrise": "1508189640",
		"sunset": "1508231100",
		"description": "Clear",
		"icon": "images\/weather\/01n.png",
		"temp_cur": "27",
		"temp_min": "29.8",
		"temp_max": "37",
		"humidity": "84",
		"pressure": "1007",
		"timezone": "3",
		"wind_speed": "4.30"
	}, {
		"id": "41",
		"loc_id": "524901",
		"lon": "37.6156",
		"lat": "55.7522",
		"country": "RU",
		"loc_name": "Moscow",
		"sunrise": "1508195100",
		"sunset": "1508232300",
		"description": "Light rain",
		"icon": "images\/weather\/10n.png",
		"temp_cur": "6",
		"temp_min": "7.4",
		"temp_max": "11.5",
		"humidity": "100",
		"pressure": "1008",
		"timezone": "3",
		"wind_speed": "9.40"
	}, {
		"id": "42",
		"loc_id": "108410",
		"lon": "46.7219",
		"lat": "24.6877",
		"country": "SA",
		"loc_name": "Riyadh",
		"sunrise": "1508190720",
		"sunset": "1508232300",
		"description": "Clear",
		"icon": "images\/weather\/01n.png",
		"temp_cur": "28.4",
		"temp_min": "26.5",
		"temp_max": "36.1",
		"humidity": "12",
		"pressure": "1011",
		"timezone": "3",
		"wind_speed": "5.40"
	}, {
		"id": "43",
		"loc_id": "2673730",
		"lon": "18.0649",
		"lat": "59.3326",
		"country": "SE",
		"loc_name": "Stockholm",
		"sunrise": "1508196660",
		"sunset": "1508232900",
		"description": "Light rain",
		"icon": "images\/weather\/10n.png",
		"temp_cur": "10",
		"temp_min": "5.5",
		"temp_max": "15",
		"humidity": "100",
		"pressure": "1015",
		"timezone": "1",
		"wind_speed": "0.00"
	}, {
		"id": "44",
		"loc_id": "1880252",
		"lon": "103.85",
		"lat": "1.28967",
		"country": "SG",
		"loc_name": "Singapore",
		"sunrise": "1508194020",
		"sunset": "1508237520",
		"description": "Partly cloudy",
		"icon": "images\/weather\/03d.png",
		"temp_cur": "30",
		"temp_min": "27.2",
		"temp_max": "31.8",
		"humidity": "75",
		"pressure": "1010",
		"timezone": "8",
		"wind_speed": "3.80"
	}, {
		"id": "45",
		"loc_id": "1609350",
		"lon": "100.517",
		"lat": "13.75",
		"country": "TH",
		"loc_name": "Bangkok",
		"sunrise": "1508191740",
		"sunset": "1508234220",
		"description": "Partly cloudy",
		"icon": "images\/weather\/03d.png",
		"temp_cur": "28",
		"temp_min": "27.6",
		"temp_max": "35",
		"humidity": "79",
		"pressure": "1010",
		"timezone": "7",
		"wind_speed": "4.30"
	}, {
		"id": "46",
		"loc_id": "323786",
		"lon": "32.8543",
		"lat": "39.9199",
		"country": "TR",
		"loc_name": "Ankara",
		"sunrise": "1508194860",
		"sunset": "1508234760",
		"description": "Clear",
		"icon": "images\/weather\/01n.png",
		"temp_cur": "4",
		"temp_min": "10.4",
		"temp_max": "19.9",
		"humidity": "87",
		"pressure": "1027",
		"timezone": "2",
		"wind_speed": "0.00"
	}, {
		"id": "47",
		"loc_id": "1668341",
		"lon": "121.532",
		"lat": "25.0478",
		"country": "TW",
		"loc_name": "Taipei",
		"sunrise": "1508190780",
		"sunset": "1508232360",
		"description": "Light rain",
		"icon": "images\/weather\/10d.png",
		"temp_cur": "26",
		"temp_min": "20.9",
		"temp_max": "25",
		"humidity": "94",
		"pressure": "1015",
		"timezone": "8",
		"wind_speed": "8.10"
	}, {
		"id": "48",
		"loc_id": "2643741",
		"lon": "-0.09184",
		"lat": "51.5128",
		"country": "UK",
		"loc_name": "London",
		"sunrise": "1508196480",
		"sunset": "1508234580",
		"description": "Clear",
		"icon": "images\/weather\/01n.png",
		"temp_cur": "14",
		"temp_min": "13.9",
		"temp_max": "16.7",
		"humidity": "67",
		"pressure": "1019",
		"timezone": "0",
		"wind_speed": "17.40"
	}, {
		"id": "49",
		"loc_id": "4140963",
		"lon": "-77.0364",
		"lat": "38.8951",
		"country": "US",
		"loc_name": "Washington",
		"sunrise": "1508195940",
		"sunset": "1508236080",
		"description": "Partly cloudy",
		"icon": "images\/weather\/03n.png",
		"temp_cur": "14.4",
		"temp_min": "7.2",
		"temp_max": "19.2",
		"humidity": "44",
		"pressure": "1023",
		"timezone": "-5",
		"wind_speed": "10.50"
	}, {
		"id": "50",
		"loc_id": "1580541",
		"lon": "108.335",
		"lat": "15.8794",
		"country": "VN",
		"loc_name": "Hanoi",
		"sunrise": "1508190780",
		"sunset": "1508232660",
		"description": "Partly cloudy",
		"icon": "images\/weather\/03d.png",
		"temp_cur": "22",
		"temp_min": "20",
		"temp_max": "21.1",
		"humidity": "69",
		"pressure": "1016",
		"timezone": "7",
		"wind_speed": "10.50"
	}, {
		"id": "51",
		"loc_id": "964137",
		"lon": "28.1878",
		"lat": "-25.7449",
		"country": "ZA",
		"loc_name": "Pretoria",
		"sunrise": "1508189460",
		"sunset": "1508235300",
		"description": "Clear",
		"icon": "images\/weather\/01n.png",
		"temp_cur": "20.6",
		"temp_min": "17.4",
		"temp_max": "27.4",
		"humidity": "14",
		"pressure": "1013",
		"timezone": "2",
		"wind_speed": "12.80"
	}]
}